header.stamp,sensor_stamp,sample_stamp,position.y,position.x,position.z,position_std_dev.x,position_std_dev.y,position_std_dev.z,velocity.x,velocity.y,velocity.z,velocity_std_dev.x,velocity_std_dev.y,velocity_std_dev.z,angular.x,angular.y,angular.z,angular_std_dev.x,angular_std_dev.y,angular_std_dev.z,num_sates,solve_status,ins_status,speed,gps_fix_info,orientation.x,orientation.y,orientation.z,orientation.w,pitch,yaw,roll,x_offset,y_offset,z_offset,zone_id,position_gps.x,position_gps.y,position_gps.z,acc.x,acc.y,acc.z,accgyo.x,accgyo.y,accgyo.z,rtk_state_code,gyro.x,gyro.y,gyro.z,accleration.x,accleration.y,accleration.z
1715758912908,1715758912900,1715758912908,22.97401985663,113.39547486512,14.1019,0.04309999942779541,0.04089999943971634,0.0430000014603138,17.480199813842773,-9.482199668884277,-0.14880000054836273,0.009399999864399433,0.008899999782443047,0.006899999920278788,-1.9508758783340454,331.3295593261719,1.2300828695297241,0.010099999606609344,0.07519999891519547,0.010200000368058681,26,,,0.0,4,0.0,0.0,0.0,0.0,0.10000000149011612,0.20000000298023224,0.30000001192092896,0.4000000059604645,0.5,0.6000000238418579,0,22.97401985663,113.39547486512,14.1019,0.0,0.0,0.0,0.0,0.0,0.0,0,0.0,0.0,0.0,0.0,0.0,0.0
1715758912913,1715758912910,1715758912913,22.97402143348,113.39547394055,14.1003,0.04309999942779541,0.04089999943971634,0.0430000014603138,17.482099533081055,-9.480999946594238,-0.1535000056028366,0.009399999864399433,0.008899999782443047,0.006899999920278788,-1.952340006828308,331.3324279785156,1.2359422445297241,0.010099999606609344,0.07519999891519547,0.010200000368058681,26,,,0.0,4,0.0,0.0,0.0,0.0,0.10000000149011612,0.20000000298023224,0.30000001192092896,0.4000000059604645,0.5,0.6000000238418579,0,22.97402143348,113.39547394055,14.1003,0.0,0.0,0.0,0.0,0.0,0.0,0,0.0,0.0,0.0,0.0,0.0,0.0
1715758912924,1715758912920,1715758912923,22.9740230108,113.39547301547,14.0987,0.04309999942779541,0.04089999943971634,0.0430000014603138,17.486600875854492,-9.48449993133545,-0.15209999680519104,0.009399999864399433,0.008899999782443047,0.006899999920278788,-1.9329982995986938,331.3349304199219,1.239611268043518,0.010099999606609344,0.07519999891519547,0.010200000368058681,26,,,0.0,4,0.0,0.0,0.0,0.0,0.10000000149011612,0.20000000298023224,0.30000001192092896,0.4000000059604645,0.5,0.6000000238418579,0,22.9740230108,113.39547301547,14.0987,0.0,0.0,0.0,0.0,0.0,0.0,0,0.0,0.0,0.0,0.0,0.0,0.0
1715758912933,1715758912930,1715758912933,22.97402458828,113.39547208951,14.097,0.04309999942779541,0.04089999943971634,0.0430000014603138,17.488800048828125,-9.493800163269043,-0.16050000488758087,0.009399999864399433,0.008899999782443047,0.006899999920278788,-1.953485369682312,331.33709716796875,1.2405990362167358,0.010099999606609344,0.07519999891519547,0.010200000368058681,26,,,0.0,4,0.0,0.0,0.0,0.0,0.10000000149011612,0.20000000298023224,0.30000001192092896,0.4000000059604645,0.5,0.6000000238418579,0,22.97402458828,113.39547208951,14.097,0.0,0.0,0.0,0.0,0.0,0.0,0,0.0,0.0,0.0,0.0,0.0,0.0
1715758912943,1715758912940,1715758912943,22.97402616636,113.39547116501,14.0956,0.04309999942779541,0.04089999943971634,0.0430000014603138,17.494800567626953,-9.4822998046875,-0.14249999821186066,0.009399999864399433,0.008899999782443047,0.006899999920278788,-1.9368997812271118,331.3379211425781,1.2421202659606934,0.010099999606609344,0.07519999891519547,0.010200000368058681,26,,,0.0,4,0.0,0.0,0.0,0.0,0.10000000149011612,0.20000000298023224,0.30000001192092896,0.4000000059604645,0.5,0.6000000238418579,0,22.97402616636,113.39547116501,14.0956,0.0,0.0,0.0,0.0,0.0,0.0,0,0.0,0.0,0.0,0.0,0.0,0.0
1715758912953,1715758912950,1715758912953,22.9740277443,113.39547023946,14.094,0.04309999942779541,0.04089999943971634,0.0430000014603138,17.494600296020508,-9.487099647521973,-0.1428000032901764,0.009399999864399433,0.008899999782443047,0.006899999920278788,-1.939631700515747,331.3403015136719,1.236562728881836,0.010099999606609344,0.07519999891519547,0.010200000368058681,26,,,0.0,4,0.0,0.0,0.0,0.0,0.10000000149011612,0.20000000298023224,0.30000001192092896,0.4000000059604645,0.5,0.6000000238418579,0,22.9740277443,113.39547023946,14.094,0.0,0.0,0.0,0.0,0.0,0.0,0,0.0,0.0,0.0,0.0,0.0,0.0
1715758912963,1715758912960,1715758912962,22.97402932203,113.39546931205,14.0923,0.04309999942779541,0.04089999943971634,0.0430000014603138,17.491300582885742,-9.506999969482422,-0.1607999950647354,0.009399999864399433,0.008899999782443047,0.006899999920278788,-1.9372406005859375,331.34429931640625,1.2421038150787354,0.010099999606609344,0.07519999891519547,0.010200000368058681,26,,,0.0,4,0.0,0.0,0.0,0.0,0.10000000149011612,0.20000000298023224,0.30000001192092896,0.4000000059604645,0.5,0.6000000238418579,0,22.97402932203,113.39546931205,14.0923,0.0,0.0,0.0,0.0,0.0,0.0,0,0.0,0.0,0.0,0.0,0.0,0.0
1715758912973,1715758912970,1715758912972,22.97403090095,113.39546838603,14.0909,0.04309999942779541,0.04089999943971634,0.0430000014603138,17.501800537109375,-9.499799728393555,-0.1420000046491623,0.009399999864399433,0.008899999782443047,0.006899999920278788,-1.9240955114364624,331.34619140625,1.247270941734314,0.010099999606609344,0.07519999891519547,0.010200000368058681,26,,,0.0,4,0.0,0.0,0.0,0.0,0.10000000149011612,0.20000000298023224,0.30000001192092896,0.4000000059604645,0.5,0.6000000238418579,0,22.97403090095,113.39546838603,14.0909,0.0,0.0,0.0,0.0,0.0,0.0,0,0.0,0.0,0.0,0.0,0.0,0.0
1715758912984,1715758912980,1715758912983,22.97403248029,113.39546745931,14.0894,0.04309999942779541,0.04089999943971634,0.0430000014603138,17.50950050354004,-9.501899719238281,-0.13819999992847443,0.009399999864399433,0.008899999782443047,0.006899999920278788,-1.9376100301742554,331.3489074707031,1.2387714385986328,0.010099999606609344,0.07519999891519547,0.010200000368058681,26,,,0.0,4,0.0,0.0,0.0,0.0,0.10000000149011612,0.20000000298023224,0.30000001192092896,0.4000000059604645,0.5,0.6000000238418579,0,22.97403248029,113.39546745931,14.0894,0.0,0.0,0.0,0.0,0.0,0.0,0,0.0,0.0,0.0,0.0,0.0,0.0
1715758912993,1715758912990,1715758912992,22.97403405932,113.39546653218,14.0879,0.04309999942779541,0.04089999943971634,0.0430000014603138,17.507600784301758,-9.505900382995605,-0.14419999718666077,0.009399999864399433,0.008899999782443047,0.006899999920278788,-1.9295027256011963,331.34954833984375,1.2385077476501465,0.010099999606609344,0.07519999891519547,0.010200000368058681,26,,,0.0,4,0.0,0.0,0.0,0.0,0.10000000149011612,0.20000000298023224,0.30000001192092896,0.4000000059604645,0.5,0.6000000238418579,0,22.97403405932,113.39546653218,14.0879,0.0,0.0,0.0,0.0,0.0,0.0,0,0.0,0.0,0.0,0.0,0.0,0.0
1715758913066,1715758913000,1715758913065,22.9740356395,113.39546560572,14.0863,0.04309999942779541,0.04089999943971634,0.0430000014603138,17.51729965209961,-9.500300407409668,-0.15680000185966492,0.009399999864399433,0.008899999782443047,0.006899999920278788,-1.9290999174118042,331.352294921875,1.2339900732040405,0.010099999606609344,0.07519999891519547,0.010200000368058681,26,,,0.0,4,0.0,0.0,0.0,0.0,0.10000000149011612,0.20000000298023224,0.30000001192092896,0.4000000059604645,0.5,0.6000000238418579,0,22.9740356395,113.39546560572,14.0863,0.0,0.0,0.0,0.0,0.0,0.0,0,0.0,0.0,0.0,0.0,0.0,0.0
1715758913068,1715758913010,1715758913067,22.97403721971,113.39546467746,14.0848,0.050999999046325684,0.048500001430511475,0.04879999905824661,17.520000457763672,-9.514900207519531,-0.14489999413490295,0.010300000198185444,0.009800000116229057,0.007199999876320362,-1.9354491233825684,331.3567810058594,1.2342369556427002,0.010200000368058681,0.07530000060796738,0.010300000198185444,26,,,0.0,4,0.0,0.0,0.0,0.0,0.10000000149011612,0.20000000298023224,0.30000001192092896,0.4000000059604645,0.5,0.6000000238418579,0,22.97403721971,113.39546467746,14.0848,0.0,0.0,0.0,0.0,0.0,0.0,0,0.0,0.0,0.0,0.0,0.0,0.0
1715758913085,1715758913020,1715758913085,22.97403879977,113.39546374993,14.0834,0.050999999046325684,0.048500001430511475,0.04879999905824661,17.51799964904785,-9.512999534606934,-0.12999999523162842,0.010300000198185444,0.009800000116229057,0.007199999876320362,-1.9442826509475708,331.3590087890625,1.2363945245742798,0.010200000368058681,0.07530000060796738,0.010300000198185444,26,,,0.0,4,0.0,0.0,0.0,0.0,0.10000000149011612,0.20000000298023224,0.30000001192092896,0.4000000059604645,0.5,0.6000000238418579,0,22.97403879977,113.39546374993,14.0834,0.0,0.0,0.0,0.0,0.0,0.0,0,0.0,0.0,0.0,0.0,0.0,0.0
1715758913088,1715758913030,1715758913087,22.97404038064,113.39546282283,14.0818,0.038600001484155655,0.03610000014305115,0.04149999842047691,17.525999069213867,-9.506600379943848,-0.1534000039100647,0.00860000029206276,0.008100000210106373,0.006399999838322401,-1.9293156862258911,331.3623962402344,1.2354191541671753,0.00989999994635582,0.07530000060796738,0.010099999606609344,26,,,0.0,4,0.0,0.0,0.0,0.0,0.10000000149011612,0.20000000298023224,0.30000001192092896,0.4000000059604645,0.5,0.6000000238418579,0,22.97404038064,113.39546282283,14.0818,0.0,0.0,0.0,0.0,0.0,0.0,0,0.0,0.0,0.0,0.0,0.0,0.0
1715758913089,1715758913040,1715758913089,22.97404196348,113.39546189593,14.0803,0.038600001484155655,0.03610000014305115,0.04149999842047691,17.539899826049805,-9.502900123596191,-0.15039999783039093,0.00860000029206276,0.008100000210106373,0.006399999838322401,-1.9347764253616333,331.364990234375,1.2354689836502075,0.00989999994635582,0.07530000060796738,0.010099999606609344,26,,,0.0,4,0.0,0.0,0.0,0.0,0.10000000149011612,0.20000000298023224,0.30000001192092896,0.4000000059604645,0.5,0.6000000238418579,0,22.97404196348,113.39546189593,14.0803,0.0,0.0,0.0,0.0,0.0,0.0,0,0.0,0.0,0.0,0.0,0.0,0.0
1715758913099,1715758913050,1715758913098,22.97404354567,113.39546096814,14.0788,0.038600001484155655,0.03610000014305115,0.04149999842047691,17.536500930786133,-9.510700225830078,-0.14650000631809235,0.00860000029206276,0.008100000210106373,0.006399999838322401,-1.963998794555664,331.3666076660156,1.2365020513534546,0.00989999994635582,0.07530000060796738,0.010099999606609344,26,,,0.0,4,0.0,0.0,0.0,0.0,0.10000000149011612,0.20000000298023224,0.30000001192092896,0.4000000059604645,0.5,0.6000000238418579,0,22.97404354567,113.39546096814,14.0788,0.0,0.0,0.0,0.0,0.0,0.0,0,0.0,0.0,0.0,0.0,0.0,0.0
1715758913102,1715758913060,1715758913100,22.97404512908,113.39546004116,14.0775,0.038600001484155655,0.03610000014305115,0.04149999842047691,17.545799255371094,-9.506199836730957,-0.13249999284744263,0.00860000029206276,0.008100000210106373,0.006399999838322401,-1.9307485818862915,331.370361328125,1.2431083917617798,0.00989999994635582,0.07530000060796738,0.010099999606609344,26,,,0.0,4,0.0,0.0,0.0,0.0,0.10000000149011612,0.20000000298023224,0.30000001192092896,0.4000000059604645,0.5,0.6000000238418579,0,22.97404512908,113.39546004116,14.0775,0.0,0.0,0.0,0.0,0.0,0.0,0,0.0,0.0,0.0,0.0,0.0,0.0
1715758913121,1715758913070,1715758913120,22.97404671337,113.39545911397,14.0758,0.038600001484155655,0.03610000014305115,0.04149999842047691,17.556900024414062,-9.506099700927734,-0.16050000488758087,0.00860000029206276,0.008100000210106373,0.006399999838322401,-1.9529364109039307,331.3729553222656,1.2447563409805298,0.00989999994635582,0.07530000060796738,0.010099999606609344,26,,,0.0,4,0.0,0.0,0.0,0.0,0.10000000149011612,0.20000000298023224,0.30000001192092896,0.4000000059604645,0.5,0.6000000238418579,0,22.97404671337,113.39545911397,14.0758,0.0,0.0,0.0,0.0,0.0,0.0,0,0.0,0.0,0.0,0.0,0.0,0.0
1715758913127,1715758913080,1715758913126,22.97404829699,113.39545818554,14.0743,0.038600001484155655,0.03610000014305115,0.04149999842047691,17.552200317382812,-9.518099784851074,-0.15780000388622284,0.00860000029206276,0.008100000210106373,0.006399999838322401,-1.977864384651184,331.3761901855469,1.247667908668518,0.00989999994635582,0.07530000060796738,0.010099999606609344,26,,,0.0,4,0.0,0.0,0.0,0.0,0.10000000149011612,0.20000000298023224,0.30000001192092896,0.4000000059604645,0.5,0.6000000238418579,0,22.97404829699,113.39545818554,14.0743,0.0,0.0,0.0,0.0,0.0,0.0,0,0.0,0.0,0.0,0.0,0.0,0.0
1715758913129,1715758913090,1715758913128,22.97404988237,113.39545725812,14.073,0.038600001484155655,0.03610000014305115,0.04149999842047691,17.566600799560547,-9.512499809265137,-0.13009999692440033,0.00860000029206276,0.008100000210106373,0.006399999838322401,-1.9507461786270142,331.3800048828125,1.2577950954437256,0.00989999994635582,0.07530000060796738,0.010099999606609344,26,,,0.0,4,0.0,0.0,0.0,0.0,0.10000000149011612,0.20000000298023224,0.30000001192092896,0.4000000059604645,0.5,0.6000000238418579,0,22.97404988237,113.39545725812,14.073,0.0,0.0,0.0,0.0,0.0,0.0,0,0.0,0.0,0.0,0.0,0.0,0.0
1715758913133,1715758913100,1715758913133,22.97405146838,113.39545632987,14.0715,0.038600001484155655,0.03610000014305115,0.04149999842047691,17.577199935913086,-9.517200469970703,-0.1446000039577484,0.00860000029206276,0.008100000210106373,0.006399999838322401,-1.9785122871398926,331.382080078125,1.2533297538757324,0.00989999994635582,0.07530000060796738,0.010099999606609344,26,,,0.0,4,0.0,0.0,0.0,0.0,0.10000000149011612,0.20000000298023224,0.30000001192092896,0.4000000059604645,0.5,0.6000000238418579,0,22.97405146838,113.39545632987,14.0715,0.0,0.0,0.0,0.0,0.0,0.0,0,0.0,0.0,0.0,0.0,0.0,0.0
1715758913136,1715758913110,1715758913135,22.97405305302,113.39545540046,14.0699,0.038600001484155655,0.03610000014305115,0.04149999842047691,17.56450080871582,-9.52970027923584,-0.15800000727176666,0.00860000029206276,0.008100000210106373,0.006399999838322401,-2.0084547996520996,331.3834228515625,1.253761649131775,0.00989999994635582,0.07530000060796738,0.010099999606609344,26,,,0.0,4,0.0,0.0,0.0,0.0,0.10000000149011612,0.20000000298023224,0.30000001192092896,0.4000000059604645,0.5,0.6000000238418579,0,22.97405305302,113.39545540046,14.0699,0.0,0.0,0.0,0.0,0.0,0.0,0,0.0,0.0,0.0,0.0,0.0,0.0
1715758913139,1715758913120,1715758913139,22.9740546386,113.39545447135,14.0684,0.038600001484155655,0.03610000014305115,0.04149999842047691,17.567800521850586,-9.530400276184082,-0.15479999780654907,0.00860000029206276,0.008100000210106373,0.006399999838322401,-1.9840606451034546,331.3854064941406,1.2546708583831787,0.00989999994635582,0.07530000060796738,0.010099999606609344,26,,,0.0,4,0.0,0.0,0.0,0.0,0.10000000149011612,0.20000000298023224,0.30000001192092896,0.4000000059604645,0.5,0.6000000238418579,0,22.9740546386,113.39545447135,14.0684,0.0,0.0,0.0,0.0,0.0,0.0,0,0.0,0.0,0.0,0.0,0.0,0.0
1715758913143,1715758913130,1715758913143,22.97405622495,113.39545354163,14.0671,0.038600001484155655,0.03610000014305115,0.04149999842047691,17.57699966430664,-9.534600257873535,-0.13609999418258667,0.00860000029206276,0.008100000210106373,0.006399999838322401,-2.017636299133301,331.3888854980469,1.2527272701263428,0.00989999994635582,0.07530000060796738,0.010099999606609344,26,,,0.0,4,0.0,0.0,0.0,0.0,0.10000000149011612,0.20000000298023224,0.30000001192092896,0.4000000059604645,0.5,0.6000000238418579,0,22.97405622495,113.39545354163,14.0671,0.0,0.0,0.0,0.0,0.0,0.0,0,0.0,0.0,0.0,0.0,0.0,0.0
1715758913148,1715758913140,1715758913147,22.97405781034,113.39545261225,14.0654,0.038600001484155655,0.03610000014305115,0.04149999842047691,17.569799423217773,-9.531700134277344,-0.1581999957561493,0.00860000029206276,0.008100000210106373,0.006399999838322401,-2.0349013805389404,331.39239501953125,1.2518998384475708,0.00989999994635582,0.07530000060796738,0.010099999606609344,26,,,0.0,4,0.0,0.0,0.0,0.0,0.10000000149011612,0.20000000298023224,0.30000001192092896,0.4000000059604645,0.5,0.6000000238418579,0,22.97405781034,113.39545261225,14.0654,0.0,0.0,0.0,0.0,0.0,0.0,0,0.0,0.0,0.0,0.0,0.0,0.0
1715758913155,1715758913150,1715758913155,22.97405939654,113.39545168218,14.0637,0.038600001484155655,0.03610000014305115,0.04149999842047691,17.574600219726562,-9.536299705505371,-0.16750000417232513,0.00860000029206276,0.008100000210106373,0.006399999838322401,-2.007579803466797,331.3944396972656,1.246872067451477,0.00989999994635582,0.07530000060796738,0.010099999606609344,26,,,0.0,4,0.0,0.0,0.0,0.0,0.10000000149011612,0.20000000298023224,0.30000001192092896,0.4000000059604645,0.5,0.6000000238418579,0,22.97405939654,113.39545168218,14.0637,0.0,0.0,0.0,0.0,0.0,0.0,0,0.0,0.0,0.0,0.0,0.0,0.0
1715758913163,1715758913160,1715758913163,22.97406098315,113.39545075205,14.0623,0.038600001484155655,0.03610000014305115,0.04149999842047691,17.58049964904785,-9.538100242614746,-0.15070000290870667,0.00860000029206276,0.008100000210106373,0.006399999838322401,-2.051149845123291,331.3949279785156,1.2403680086135864,0.00989999994635582,0.07530000060796738,0.010099999606609344,26,,,0.0,4,0.0,0.0,0.0,0.0,0.10000000149011612,0.20000000298023224,0.30000001192092896,0.4000000059604645,0.5,0.6000000238418579,0,22.97406098315,113.39545075205,14.0623,0.0,0.0,0.0,0.0,0.0,0.0,0,0.0,0.0,0.0,0.0,0.0,0.0
1715758913173,1715758913170,1715758913172,22.97406256926,113.39544982194,14.0607,0.038600001484155655,0.03610000014305115,0.04149999842047691,17.576900482177734,-9.537799835205078,-0.1559000015258789,0.00860000029206276,0.008100000210106373,0.006399999838322401,-2.0530197620391846,331.3979797363281,1.2328659296035767,0.00989999994635582,0.07530000060796738,0.010099999606609344,26,,,0.0,4,0.0,0.0,0.0,0.0,0.10000000149011612,0.20000000298023224,0.30000001192092896,0.4000000059604645,0.5,0.6000000238418579,0,22.97406256926,113.39544982194,14.0607,0.0,0.0,0.0,0.0,0.0,0.0,0,0.0,0.0,0.0,0.0,0.0,0.0
1715758913186,1715758913180,1715758913186,22.97406415572,113.39544889082,14.059,0.038600001484155655,0.03610000014305115,0.04149999842047691,17.57830047607422,-9.546899795532227,-0.16670000553131104,0.00860000029206276,0.008100000210106373,0.006399999838322401,-2.037727117538452,331.4006042480469,1.2300485372543335,0.00989999994635582,0.07530000060796738,0.010099999606609344,26,,,0.0,4,0.0,0.0,0.0,0.0,0.10000000149011612,0.20000000298023224,0.30000001192092896,0.4000000059604645,0.5,0.6000000238418579,0,22.97406415572,113.39544889082,14.059,0.0,0.0,0.0,0.0,0.0,0.0,0,0.0,0.0,0.0,0.0,0.0,0.0
1715758913193,1715758913190,1715758913193,22.97406574308,113.39544796075,14.0573,0.038600001484155655,0.03610000014305115,0.04149999842047691,17.587900161743164,-9.53950023651123,-0.17520000040531158,0.00860000029206276,0.008100000210106373,0.006399999838322401,-2.068061590194702,331.4013977050781,1.226514458656311,0.00989999994635582,0.07530000060796738,0.010099999606609344,26,,,0.0,4,0.0,0.0,0.0,0.0,0.10000000149011612,0.20000000298023224,0.30000001192092896,0.4000000059604645,0.5,0.6000000238418579,0,22.97406574308,113.39544796075,14.0573,0.0,0.0,0.0,0.0,0.0,0.0,0,0.0,0.0,0.0,0.0,0.0,0.0
1715758913239,1715758913200,1715758913239,22.97406733029,113.39544703133,14.0558,0.038600001484155655,0.03610000014305115,0.04149999842047691,17.58930015563965,-9.529800415039062,-0.15070000290870667,0.00860000029206276,0.008100000210106373,0.006399999838322401,-2.074052095413208,331.4039001464844,1.222381830215454,0.00989999994635582,0.07530000060796738,0.010099999606609344,26,,,0.0,4,0.0,0.0,0.0,0.0,0.10000000149011612,0.20000000298023224,0.30000001192092896,0.4000000059604645,0.5,0.6000000238418579,0,22.97406733029,113.39544703133,14.0558,0.0,0.0,0.0,0.0,0.0,0.0,0,0.0,0.0,0.0,0.0,0.0,0.0
1715758913243,1715758913210,1715758913243,22.97406891784,113.39544610104,14.054,0.038600001484155655,0.03610000014305115,0.04149999842047691,17.591899871826172,-9.535200119018555,-0.17239999771118164,0.00860000029206276,0.008100000210106373,0.006399999838322401,-2.0565836429595947,331.4054260253906,1.2222992181777954,0.00989999994635582,0.07530000060796738,0.010099999606609344,26,,,0.0,4,0.0,0.0,0.0,0.0,0.10000000149011612,0.20000000298023224,0.30000001192092896,0.4000000059604645,0.5,0.6000000238418579,0,22.97406891784,113.39544610104,14.054,0.0,0.0,0.0,0.0,0.0,0.0,0,0.0,0.0,0.0,0.0,0.0,0.0
1715758913252,1715758913220,1715758913252,22.9740705062,113.39544517146,14.0522,0.038600001484155655,0.03610000014305115,0.04149999842047691,17.600400924682617,-9.531299591064453,-0.18400000035762787,0.00860000029206276,0.008100000210106373,0.006399999838322401,-2.0793750286102295,331.40496826171875,1.2230572700500488,0.00989999994635582,0.07530000060796738,0.010099999606609344,26,,,0.0,4,0.0,0.0,0.0,0.0,0.10000000149011612,0.20000000298023224,0.30000001192092896,0.4000000059604645,0.5,0.6000000238418579,0,22.9740705062,113.39544517146,14.0522,0.0,0.0,0.0,0.0,0.0,0.0,0,0.0,0.0,0.0,0.0,0.0,0.0
1715758913256,1715758913230,1715758913256,22.97407209374,113.39544424182,14.0505,0.038600001484155655,0.03610000014305115,0.04149999842047691,17.593799591064453,-9.530799865722656,-0.17520000040531158,0.00860000029206276,0.008100000210106373,0.006399999838322401,-2.0935959815979004,331.40496826171875,1.2206040620803833,0.00989999994635582,0.07530000060796738,0.010099999606609344,26,,,0.0,4,0.0,0.0,0.0,0.0,0.10000000149011612,0.20000000298023224,0.30000001192092896,0.4000000059604645,0.5,0.6000000238418579,0,22.97407209374,113.39544424182,14.0505,0.0,0.0,0.0,0.0,0.0,0.0,0,0.0,0.0,0.0,0.0,0.0,0.0
1715758913259,1715758913240,1715758913258,22.97407368171,113.39544331119,14.0487,0.038600001484155655,0.03610000014305115,0.04149999842047691,17.59480094909668,-9.540399551391602,-0.17470000684261322,0.00860000029206276,0.008100000210106373,0.006399999838322401,-2.062509536743164,331.4059143066406,1.224733829498291,0.00989999994635582,0.07530000060796738,0.010099999606609344,26,,,0.0,4,0.0,0.0,0.0,0.0,0.10000000149011612,0.20000000298023224,0.30000001192092896,0.4000000059604645,0.5,0.6000000238418579,0,22.97407368171,113.39544331119,14.0487,0.0,0.0,0.0,0.0,0.0,0.0,0,0.0,0.0,0.0,0.0,0.0,0.0
1715758913263,1715758913250,1715758913262,22.97407527182,113.39544238169,14.0469,0.038600001484155655,0.03610000014305115,0.04149999842047691,17.61709976196289,-9.533100128173828,-0.18310000002384186,0.00860000029206276,0.008100000210106373,0.006399999838322401,-2.084890842437744,331.4062805175781,1.226523518562317,0.00989999994635582,0.07530000060796738,0.010099999606609344,26,,,0.0,4,0.0,0.0,0.0,0.0,0.10000000149011612,0.20000000298023224,0.30000001192092896,0.4000000059604645,0.5,0.6000000238418579,0,22.97407527182,113.39544238169,14.0469,0.0,0.0,0.0,0.0,0.0,0.0,0,0.0,0.0,0.0,0.0,0.0,0.0
1715758913265,1715758913260,1715758913264,22.97407686043,113.39544145172,14.0449,0.038600001484155655,0.03610000014305115,0.04149999842047691,17.608699798583984,-9.534199714660645,-0.2013999968767166,0.00860000029206276,0.008100000210106373,0.006399999838322401,-2.1076536178588867,331.4068908691406,1.2246567010879517,0.00989999994635582,0.07530000060796738,0.010099999606609344,26,,,0.0,4,0.0,0.0,0.0,0.0,0.10000000149011612,0.20000000298023224,0.30000001192092896,0.4000000059604645,0.5,0.6000000238418579,0,22.97407686043,113.39544145172,14.0449,0.0,0.0,0.0,0.0,0.0,0.0,0,0.0,0.0,0.0,0.0,0.0,0.0
1715758913274,1715758913270,1715758913273,22.97407844932,113.3954405205,14.0432,0.038600001484155655,0.03610000014305115,0.04149999842047691,17.606300354003906,-9.546899795532227,-0.17550000548362732,0.00860000029206276,0.008100000210106373,0.006399999838322401,-2.0791757106781006,331.40771484375,1.229919672012329,0.00989999994635582,0.07530000060796738,0.010099999606609344,26,,,0.0,4,0.0,0.0,0.0,0.0,0.10000000149011612,0.20000000298023224,0.30000001192092896,0.4000000059604645,0.5,0.6000000238418579,0,22.97407844932,113.3954405205,14.0432,0.0,0.0,0.0,0.0,0.0,0.0,0,0.0,0.0,0.0,0.0,0.0,0.0
1715758913284,1715758913280,1715758913283,22.97408003936,113.39543958967,14.0413,0.038600001484155655,0.03610000014305115,0.04149999842047691,17.616899490356445,-9.547300338745117,-0.18780000507831573,0.00860000029206276,0.008100000210106373,0.006399999838322401,-2.1052968502044678,331.4062194824219,1.2310594320297241,0.00989999994635582,0.07530000060796738,0.010099999606609344,26,,,0.0,4,0.0,0.0,0.0,0.0,0.10000000149011612,0.20000000298023224,0.30000001192092896,0.4000000059604645,0.5,0.6000000238418579,0,22.97408003936,113.39543958967,14.0413,0.0,0.0,0.0,0.0,0.0,0.0,0,0.0,0.0,0.0,0.0,0.0,0.0
1715758913294,1715758913290,1715758913293,22.9740816285,113.39543865904,14.0393,0.038600001484155655,0.03610000014305115,0.04149999842047691,17.611099243164062,-9.543999671936035,-0.19949999451637268,0.00860000029206276,0.008100000210106373,0.006399999838322401,-2.1158363819122314,331.4035949707031,1.224795937538147,0.00989999994635582,0.07530000060796738,0.010099999606609344,26,,,0.0,4,0.0,0.0,0.0,0.0,0.10000000149011612,0.20000000298023224,0.30000001192092896,0.4000000059604645,0.5,0.6000000238418579,0,22.9740816285,113.39543865904,14.0393,0.0,0.0,0.0,0.0,0.0,0.0,0,0.0,0.0,0.0,0.0,0.0,0.0
1715758913305,1715758913300,1715758913305,22.97408321805,113.39543772741,14.0373,0.038600001484155655,0.03610000014305115,0.04149999842047691,17.612199783325195,-9.5516996383667,-0.19769999384880066,0.00860000029206276,0.008100000210106373,0.006399999838322401,-2.093794345855713,331.40234375,1.2207276821136475,0.00989999994635582,0.07530000060796738,0.010099999606609344,26,,,0.0,4,0.0,0.0,0.0,0.0,0.10000000149011612,0.20000000298023224,0.30000001192092896,0.4000000059604645,0.5,0.6000000238418579,0,22.97408321805,113.39543772741,14.0373,0.0,0.0,0.0,0.0,0.0,0.0,0,0.0,0.0,0.0,0.0,0.0,0.0
1715758913313,1715758913310,1715758913312,22.97408480821,113.39543679589,14.0354,0.038600001484155655,0.03610000014305115,0.04149999842047691,17.618799209594727,-9.553099632263184,-0.18979999423027039,0.00860000029206276,0.008100000210106373,0.006399999838322401,-2.1101644039154053,331.3997802734375,1.2234047651290894,0.00989999994635582,0.07530000060796738,0.010099999606609344,26,,,0.0,4,0.0,0.0,0.0,0.0,0.10000000149011612,0.20000000298023224,0.30000001192092896,0.4000000059604645,0.5,0.6000000238418579,0,22.97408480821,113.39543679589,14.0354,0.0,0.0,0.0,0.0,0.0,0.0,0,0.0,0.0,0.0,0.0,0.0,0.0
1715758913323,1715758913320,1715758913322,22.97408639823,113.39543586402,14.0334,0.038600001484155655,0.03610000014305115,0.04149999842047691,17.619400024414062,-9.555999755859375,-0.2029999941587448,0.00860000029206276,0.008100000210106373,0.006399999838322401,-2.1149041652679443,331.3982238769531,1.2199535369873047,0.00989999994635582,0.07530000060796738,0.010099999606609344,26,,,0.0,4,0.0,0.0,0.0,0.0,0.10000000149011612,0.20000000298023224,0.30000001192092896,0.4000000059604645,0.5,0.6000000238418579,0,22.97408639823,113.39543586402,14.0334,0.0,0.0,0.0,0.0,0.0,0.0,0,0.0,0.0,0.0,0.0,0.0,0.0
1715758913333,1715758913330,1715758913333,22.9740879887,113.39543493102,14.0312,0.038600001484155655,0.03610000014305115,0.04149999842047691,17.62339973449707,-9.566900253295898,-0.21250000596046448,0.00860000029206276,0.008100000210106373,0.006399999838322401,-2.1051225662231445,331.3952941894531,1.2160873413085938,0.00989999994635582,0.07530000060796738,0.010099999606609344,26,,,0.0,4,0.0,0.0,0.0,0.0,0.10000000149011612,0.20000000298023224,0.30000001192092896,0.4000000059604645,0.5,0.6000000238418579,0,22.9740879887,113.39543493102,14.0312,0.0,0.0,0.0,0.0,0.0,0.0,0,0.0,0.0,0.0,0.0,0.0,0.0
1715758913343,1715758913340,1715758913342,22.97408958022,113.39543399936,14.0294,0.038600001484155655,0.03610000014305115,0.04149999842047691,17.634899139404297,-9.557100296020508,-0.19380000233650208,0.00860000029206276,0.008100000210106373,0.006399999838322401,-2.1189630031585693,331.39093017578125,1.2194373607635498,0.00989999994635582,0.07530000060796738,0.010099999606609344,26,,,0.0,4,0.0,0.0,0.0,0.0,0.10000000149011612,0.20000000298023224,0.30000001192092896,0.4000000059604645,0.5,0.6000000238418579,0,22.97408958022,113.39543399936,14.0294,0.0,0.0,0.0,0.0,0.0,0.0,0,0.0,0.0,0.0,0.0,0.0,0.0
1715758913353,1715758913350,1715758913353,22.97409117166,113.39543306774,14.0272,0.038600001484155655,0.03610000014305115,0.04149999842047691,17.636999130249023,-9.551799774169922,-0.20739999413490295,0.00860000029206276,0.008100000210106373,0.006399999838322401,-2.1204447746276855,331.3870849609375,1.2169768810272217,0.00989999994635582,0.07530000060796738,0.010099999606609344,26,,,0.0,4,0.0,0.0,0.0,0.0,0.10000000149011612,0.20000000298023224,0.30000001192092896,0.4000000059604645,0.5,0.6000000238418579,0,22.97409117166,113.39543306774,14.0272,0.0,0.0,0.0,0.0,0.0,0.0,0,0.0,0.0,0.0,0.0,0.0,0.0
1715758913364,1715758913360,1715758913363,22.97409276321,113.39543213572,14.0252,0.038600001484155655,0.03610000014305115,0.04149999842047691,17.63719940185547,-9.554300308227539,-0.20880000293254852,0.00860000029206276,0.008100000210106373,0.006399999838322401,-2.1326842308044434,331.3811950683594,1.2223315238952637,0.00989999994635582,0.07530000060796738,0.010099999606609344,26,,,0.0,4,0.0,0.0,0.0,0.0,0.10000000149011612,0.20000000298023224,0.30000001192092896,0.4000000059604645,0.5,0.6000000238418579,0,22.97409276321,113.39543213572,14.0252,0.0,0.0,0.0,0.0,0.0,0.0,0,0.0,0.0,0.0,0.0,0.0,0.0
1715758913374,1715758913370,1715758913372,22.97409435551,113.39543120412,14.023,0.038600001484155655,0.03610000014305115,0.04149999842047691,17.643600463867188,-9.551799774169922,-0.2110999971628189,0.00860000029206276,0.008100000210106373,0.006399999838322401,-2.130246639251709,331.3767395019531,1.2250099182128906,0.00989999994635582,0.07530000060796738,0.010099999606609344,26,,,0.0,4,0.0,0.0,0.0,0.0,0.10000000149011612,0.20000000298023224,0.30000001192092896,0.4000000059604645,0.5,0.6000000238418579,0,22.97409435551,113.39543120412,14.023,0.0,0.0,0.0,0.0,0.0,0.0,0,0.0,0.0,0.0,0.0,0.0,0.0
1715758913383,1715758913380,1715758913383,22.97409594749,113.39543027028,14.021,0.038600001484155655,0.03610000014305115,0.04149999842047691,17.64189910888672,-9.572400093078613,-0.2021999955177307,0.00860000029206276,0.008100000210106373,0.006399999838322401,-2.134857416152954,331.3712158203125,1.2288240194320679,0.00989999994635582,0.07530000060796738,0.010099999606609344,26,,,0.0,4,0.0,0.0,0.0,0.0,0.10000000149011612,0.20000000298023224,0.30000001192092896,0.4000000059604645,0.5,0.6000000238418579,0,22.97409594749,113.39543027028,14.021,0.0,0.0,0.0,0.0,0.0,0.0,0,0.0,0.0,0.0,0.0,0.0,0.0
1715758913393,1715758913390,1715758913393,22.97409753922,113.39542934095,14.0189,0.038600001484155655,0.03610000014305115,0.04149999842047691,17.637500762939453,-9.536499977111816,-0.20640000700950623,0.00860000029206276,0.008100000210106373,0.006399999838322401,-2.15873122215271,331.3612060546875,1.2513110637664795,0.00989999994635582,0.07530000060796738,0.010099999606609344,26,,,0.0,4,0.0,0.0,0.0,0.0,0.10000000149011612,0.20000000298023224,0.30000001192092896,0.4000000059604645,0.5,0.6000000238418579,0,22.97409753922,113.39542934095,14.0189,0.0,0.0,0.0,0.0,0.0,0.0,0,0.0,0.0,0.0,0.0,0.0,0.0
1715758913416,1715758913400,1715758913415,22.97409913133,113.39542841287,14.0169,0.038600001484155655,0.03610000014305115,0.04149999842047691,17.639699935913086,-9.51099967956543,-0.20489999651908875,0.00860000029206276,0.008100000210106373,0.006399999838322401,-2.1335079669952393,331.3553771972656,1.2577406167984009,0.00989999994635582,0.07530000060796738,0.010099999606609344,26,,,0.0,4,0.0,0.0,0.0,0.0,0.10000000149011612,0.20000000298023224,0.30000001192092896,0.4000000059604645,0.5,0.6000000238418579,0,22.97409913133,113.39542841287,14.0169,0.0,0.0,0.0,0.0,0.0,0.0,0,0.0,0.0,0.0,0.0,0.0,0.0
1715758913418,1715758913410,1715758913417,22.97410072251,113.39542748358,14.0149,0.038600001484155655,0.03610000014305115,0.04149999842047691,17.631099700927734,-9.51710033416748,-0.1972000002861023,0.00860000029206276,0.008100000210106373,0.006399999838322401,-2.123469829559326,331.3452453613281,1.274181842803955,0.00989999994635582,0.07530000060796738,0.010099999606609344,26,,,0.0,4,0.0,0.0,0.0,0.0,0.10000000149011612,0.20000000298023224,0.30000001192092896,0.4000000059604645,0.5,0.6000000238418579,0,22.97410072251,113.39542748358,14.0149,0.0,0.0,0.0,0.0,0.0,0.0,0,0.0,0.0,0.0,0.0,0.0,0.0
1715758913423,1715758913420,1715758913423,22.97410231432,113.39542655529,14.0129,0.038600001484155655,0.03610000014305115,0.04149999842047691,17.63479995727539,-9.514100074768066,-0.20200000703334808,0.00860000029206276,0.008100000210106373,0.006399999838322401,-2.119115114212036,331.33685302734375,1.294664740562439,0.00989999994635582,0.07530000060796738,0.010099999606609344,26,,,0.0,4,0.0,0.0,0.0,0.0,0.10000000149011612,0.20000000298023224,0.30000001192092896,0.4000000059604645,0.5,0.6000000238418579,0,22.97410231432,113.39542655529,14.0129,0.0,0.0,0.0,0.0,0.0,0.0,0,0.0,0.0,0.0,0.0,0.0,0.0
1715758913433,1715758913430,1715758913433,22.97410390535,113.39542562291,14.0109,0.038600001484155655,0.03610000014305115,0.04149999842047691,17.628700256347656,-9.553799629211426,-0.195700004696846,0.00860000029206276,0.008100000210106373,0.006399999838322401,-2.072875738143921,331.3365783691406,1.3052005767822266,0.00989999994635582,0.07530000060796738,0.010099999606609344,26,,,0.0,4,0.0,0.0,0.0,0.0,0.10000000149011612,0.20000000298023224,0.30000001192092896,0.4000000059604645,0.5,0.6000000238418579,0,22.97410390535,113.39542562291,14.0109,0.0,0.0,0.0,0.0,0.0,0.0,0,0.0,0.0,0.0,0.0,0.0,0.0
1715758913443,1715758913440,1715758913442,22.97410549846,113.39542468807,14.0088,0.038600001484155655,0.03610000014305115,0.04149999842047691,17.648300170898438,-9.59119987487793,-0.20630000531673431,0.00860000029206276,0.008100000210106373,0.006399999838322401,-2.082399845123291,331.3204650878906,1.3288671970367432,0.00989999994635582,0.07530000060796738,0.010099999606609344,26,,,0.0,4,0.0,0.0,0.0,0.0,0.10000000149011612,0.20000000298023224,0.30000001192092896,0.4000000059604645,0.5,0.6000000238418579,0,22.97410549846,113.39542468807,14.0088,0.0,0.0,0.0,0.0,0.0,0.0,0,0.0,0.0,0.0,0.0,0.0,0.0
1715758913453,1715758913450,1715758913452,22.97410709372,113.39542375785,14.0066,0.038600001484155655,0.03610000014305115,0.04149999842047691,17.677400588989258,-9.555500030517578,-0.21539999544620514,0.00860000029206276,0.008100000210106373,0.006399999838322401,-2.095742702484131,331.3118591308594,1.3345924615859985,0.00989999994635582,0.07530000060796738,0.010099999606609344,26,,,0.0,4,0.0,0.0,0.0,0.0,0.10000000149011612,0.20000000298023224,0.30000001192092896,0.4000000059604645,0.5,0.6000000238418579,0,22.97410709372,113.39542375785,14.0066,0.0,0.0,0.0,0.0,0.0,0.0,0,0.0,0.0,0.0,0.0,0.0,0.0
1715758913463,1715758913460,1715758913462,22.9741086876,113.39542282541,14.0046,0.038600001484155655,0.03610000014305115,0.04149999842047691,17.670700073242188,-9.558600425720215,-0.210099995136261,0.00860000029206276,0.008100000210106373,0.006399999838322401,-2.0930862426757812,331.2987976074219,1.333131194114685,0.00989999994635582,0.07530000060796738,0.010099999606609344,26,,,0.0,4,0.0,0.0,0.0,0.0,0.10000000149011612,0.20000000298023224,0.30000001192092896,0.4000000059604645,0.5,0.6000000238418579,0,22.9741086876,113.39542282541,14.0046,0.0,0.0,0.0,0.0,0.0,0.0,0,0.0,0.0,0.0,0.0,0.0,0.0
1715758913473,1715758913470,1715758913472,22.97411028161,113.39542188943,14.0023,0.038600001484155655,0.03610000014305115,0.04149999842047691,17.665599822998047,-9.593899726867676,-0.22869999706745148,0.00860000029206276,0.008100000210106373,0.006399999838322401,-2.107508897781372,331.2857360839844,1.3447390794754028,0.00989999994635582,0.07530000060796738,0.010099999606609344,26,,,0.0,4,0.0,0.0,0.0,0.0,0.10000000149011612,0.20000000298023224,0.30000001192092896,0.4000000059604645,0.5,0.6000000238418579,0,22.97411028161,113.39542188943,14.0023,0.0,0.0,0.0,0.0,0.0,0.0,0,0.0,0.0,0.0,0.0,0.0,0.0
1715758913484,1715758913480,1715758913483,22.97411187634,113.39542095759,14.0001,0.038600001484155655,0.03610000014305115,0.04149999842047691,17.669599533081055,-9.566100120544434,-0.2175000011920929,0.00860000029206276,0.008100000210106373,0.006399999838322401,-2.1097071170806885,331.27740478515625,1.3702993392944336,0.00989999994635582,0.07530000060796738,0.010099999606609344,26,,,0.0,4,0.0,0.0,0.0,0.0,0.10000000149011612,0.20000000298023224,0.30000001192092896,0.4000000059604645,0.5,0.6000000238418579,0,22.97411187634,113.39542095759,14.0001,0.0,0.0,0.0,0.0,0.0,0.0,0,0.0,0.0,0.0,0.0,0.0,0.0
1715758913494,1715758913490,1715758913493,22.97411347142,113.39542002453,13.9979,0.038600001484155655,0.03610000014305115,0.04149999842047691,17.674299240112305,-9.56470012664795,-0.22460000216960907,0.00860000029206276,0.008100000210106373,0.006399999838322401,-2.1147778034210205,331.26397705078125,1.383173942565918,0.00989999994635582,0.07530000060796738,0.010099999606609344,26,,,0.0,4,0.0,0.0,0.0,0.0,0.10000000149011612,0.20000000298023224,0.30000001192092896,0.4000000059604645,0.5,0.6000000238418579,0,22.97411347142,113.39542002453,13.9979,0.0,0.0,0.0,0.0,0.0,0.0,0,0.0,0.0,0.0,0.0,0.0,0.0
1715758913513,1715758913500,1715758913512,22.97411506685,113.39541909094,13.9957,0.038600001484155655,0.03610000014305115,0.04149999842047691,17.67889976501465,-9.570199966430664,-0.2151000052690506,0.00860000029206276,0.008100000210106373,0.006399999838322401,-2.1119866371154785,331.2512512207031,1.4100136756896973,0.00989999994635582,0.07530000060796738,0.010099999606609344,26,,,0.0,4,0.0,0.0,0.0,0.0,0.10000000149011612,0.20000000298023224,0.30000001192092896,0.4000000059604645,0.5,0.6000000238418579,0,22.97411506685,113.39541909094,13.9957,0.0,0.0,0.0,0.0,0.0,0.0,0,0.0,0.0,0.0,0.0,0.0,0.0
1715758913515,1715758913510,1715758913515,22.97411666396,113.39541816061,13.9936,0.038600001484155655,0.03610000014305115,0.04149999842047691,17.69659996032715,-9.54170036315918,-0.21160000562667847,0.00860000029206276,0.008100000210106373,0.006399999838322401,-2.1221208572387695,331.2351379394531,1.42479407787323,0.00989999994635582,0.07530000060796738,0.010099999606609344,26,,,0.0,4,0.0,0.0,0.0,0.0,0.10000000149011612,0.20000000298023224,0.30000001192092896,0.4000000059604645,0.5,0.6000000238418579,0,22.97411666396,113.39541816061,13.9936,0.0,0.0,0.0,0.0,0.0,0.0,0,0.0,0.0,0.0,0.0,0.0,0.0
1715758913524,1715758913520,1715758913523,22.97411826024,113.39541722406,13.9912,0.038600001484155655,0.03610000014305115,0.04149999842047691,17.692800521850586,-9.591300010681152,-0.23690000176429749,0.00860000029206276,0.008100000210106373,0.006399999838322401,-2.1141715049743652,331.22454833984375,1.4359891414642334,0.00989999994635582,0.07530000060796738,0.010099999606609344,26,,,0.0,4,0.0,0.0,0.0,0.0,0.10000000149011612,0.20000000298023224,0.30000001192092896,0.4000000059604645,0.5,0.6000000238418579,0,22.97411826024,113.39541722406,13.9912,0.0,0.0,0.0,0.0,0.0,0.0,0,0.0,0.0,0.0,0.0,0.0,0.0
1715758913534,1715758913530,1715758913533,22.97411985655,113.39541628682,13.9891,0.038600001484155655,0.03610000014305115,0.04149999842047691,17.689300537109375,-9.61709976196289,-0.21690000593662262,0.00860000029206276,0.008100000210106373,0.006399999838322401,-2.1332247257232666,331.21514892578125,1.4731559753417969,0.00989999994635582,0.07530000060796738,0.010099999606609344,26,,,0.0,4,0.0,0.0,0.0,0.0,0.10000000149011612,0.20000000298023224,0.30000001192092896,0.4000000059604645,0.5,0.6000000238418579,0,22.97411985655,113.39541628682,13.9891,0.0,0.0,0.0,0.0,0.0,0.0,0,0.0,0.0,0.0,0.0,0.0,0.0
1715758913544,1715758913540,1715758913543,22.97412145516,113.39541535361,13.9872,0.038600001484155655,0.03610000014305115,0.04149999842047691,17.710899353027344,-9.583100318908691,-0.1891999989748001,0.00860000029206276,0.008100000210106373,0.006399999838322401,-2.1607582569122314,331.1979675292969,1.4993643760681152,0.00989999994635582,0.07530000060796738,0.010099999606609344,26,,,0.0,4,0.0,0.0,0.0,0.0,0.10000000149011612,0.20000000298023224,0.30000001192092896,0.4000000059604645,0.5,0.6000000238418579,0,22.97412145516,113.39541535361,13.9872,0.0,0.0,0.0,0.0,0.0,0.0,0,0.0,0.0,0.0,0.0,0.0,0.0
1715758913554,1715758913550,1715758913553,22.97412305666,113.39541441739,13.9851,0.038600001484155655,0.03610000014305115,0.04149999842047691,17.747299194335938,-9.595600128173828,-0.1940000057220459,0.00860000029206276,0.008100000210106373,0.006399999838322401,-2.15519642829895,331.18463134765625,1.5230237245559692,0.00989999994635582,0.07530000060796738,0.010099999606609344,26,,,0.0,4,0.0,0.0,0.0,0.0,0.10000000149011612,0.20000000298023224,0.30000001192092896,0.4000000059604645,0.5,0.6000000238418579,0,22.97412305666,113.39541441739,13.9851,0.0,0.0,0.0,0.0,0.0,0.0,0,0.0,0.0,0.0,0.0,0.0,0.0
1715758913564,1715758913560,1715758913563,22.97412465827,113.39541348186,13.9833,0.038600001484155655,0.03610000014305115,0.04149999842047691,17.757600784301758,-9.594200134277344,-0.1851000040769577,0.00860000029206276,0.008100000210106373,0.006399999838322401,-2.2090535163879395,331.1622314453125,1.5351818799972534,0.00989999994635582,0.07530000060796738,0.010099999606609344,26,,,0.0,4,0.0,0.0,0.0,0.0,0.10000000149011612,0.20000000298023224,0.30000001192092896,0.4000000059604645,0.5,0.6000000238418579,0,22.97412465827,113.39541348186,13.9833,0.0,0.0,0.0,0.0,0.0,0.0,0,0.0,0.0,0.0,0.0,0.0,0.0
1715758913585,1715758913570,1715758913584,22.97412625714,113.3954125458,13.9815,0.038600001484155655,0.03610000014305115,0.04149999842047691,17.7273006439209,-9.597999572753906,-0.17479999363422394,0.00860000029206276,0.008100000210106373,0.006399999838322401,-2.282982349395752,331.1379089355469,1.5535061359405518,0.00989999994635582,0.07530000060796738,0.010099999606609344,26,,,0.0,4,0.0,0.0,0.0,0.0,0.10000000149011612,0.20000000298023224,0.30000001192092896,0.4000000059604645,0.5,0.6000000238418579,0,22.97412625714,113.3954125458,13.9815,0.0,0.0,0.0,0.0,0.0,0.0,0,0.0,0.0,0.0,0.0,0.0,0.0
1715758913587,1715758913580,1715758913586,22.97412785201,113.39541160729,13.9792,0.038600001484155655,0.03610000014305115,0.04149999842047691,17.672399520874023,-9.622200012207031,-0.2222999930381775,0.00860000029206276,0.008100000210106373,0.006399999838322401,-2.2335753440856934,331.1267395019531,1.5609718561172485,0.00989999994635582,0.07530000060796738,0.010099999606609344,26,,,0.0,4,0.0,0.0,0.0,0.0,0.10000000149011612,0.20000000298023224,0.30000001192092896,0.4000000059604645,0.5,0.6000000238418579,0,22.97412785201,113.39541160729,13.9792,0.0,0.0,0.0,0.0,0.0,0.0,0,0.0,0.0,0.0,0.0,0.0,0.0
1715758913593,1715758913590,1715758913592,22.97412944717,113.39541066751,13.9766,0.038600001484155655,0.03610000014305115,0.04149999842047691,17.65880012512207,-9.641500473022461,-0.25940001010894775,0.00860000029206276,0.008100000210106373,0.006399999838322401,-2.273947238922119,331.1156921386719,1.614025592803955,0.00989999994635582,0.07530000060796738,0.010099999606609344,26,,,0.0,4,0.0,0.0,0.0,0.0,0.10000000149011612,0.20000000298023224,0.30000001192092896,0.4000000059604645,0.5,0.6000000238418579,0,22.97412944717,113.39541066751,13.9766,0.0,0.0,0.0,0.0,0.0,0.0,0,0.0,0.0,0.0,0.0,0.0,0.0
1715758913613,1715758913600,1715758913612,22.97413104531,113.39540973313,13.9741,0.038600001484155655,0.03610000014305115,0.04149999842047691,17.691999435424805,-9.593400001525879,-0.26499998569488525,0.00860000029206276,0.008100000210106373,0.006399999838322401,-2.2664847373962402,331.1009826660156,1.6304370164871216,0.00989999994635582,0.07530000060796738,0.010099999606609344,26,,,0.0,4,0.0,0.0,0.0,0.0,0.10000000149011612,0.20000000298023224,0.30000001192092896,0.4000000059604645,0.5,0.6000000238418579,0,22.97413104531,113.39540973313,13.9741,0.0,0.0,0.0,0.0,0.0,0.0,0,0.0,0.0,0.0,0.0,0.0,0.0
1715758913617,1715758913610,1715758913615,22.97413264317,113.39540879635,13.972,0.038600001484155655,0.03610000014305115,0.04149999842047691,17.70509910583496,-9.596699714660645,-0.2190999984741211,0.00860000029206276,0.008100000210106373,0.006399999838322401,-2.251554489135742,331.0813903808594,1.626355528831482,0.00989999994635582,0.07530000060796738,0.010099999606609344,26,,,0.0,4,0.0,0.0,0.0,0.0,0.10000000149011612,0.20000000298023224,0.30000001192092896,0.4000000059604645,0.5,0.6000000238418579,0,22.97413264317,113.39540879635,13.972,0.0,0.0,0.0,0.0,0.0,0.0,0,0.0,0.0,0.0,0.0,0.0,0.0
1715758913624,1715758913620,1715758913623,22.97413423746,113.39540785568,13.9695,0.038600001484155655,0.03610000014305115,0.04149999842047691,17.67180061340332,-9.638199806213379,-0.24869999289512634,0.00860000029206276,0.008100000210106373,0.006399999838322401,-2.316693067550659,331.05950927734375,1.6247609853744507,0.00989999994635582,0.07530000060796738,0.010099999606609344,26,,,0.0,4,0.0,0.0,0.0,0.0,0.10000000149011612,0.20000000298023224,0.30000001192092896,0.4000000059604645,0.5,0.6000000238418579,0,22.97413423746,113.39540785568,13.9695,0.0,0.0,0.0,0.0,0.0,0.0,0,0.0,0.0,0.0,0.0,0.0,0.0
1715758913634,1715758913630,1715758913633,22.97413583163,113.39540691486,13.9667,0.038600001484155655,0.03610000014305115,0.04149999842047691,17.657800674438477,-9.654399871826172,-0.27489998936653137,0.00860000029206276,0.008100000210106373,0.006399999838322401,-2.261171340942383,331.048583984375,1.6640287637710571,0.00989999994635582,0.07530000060796738,0.010099999606609344,26,,,0.0,4,0.0,0.0,0.0,0.0,0.10000000149011612,0.20000000298023224,0.30000001192092896,0.4000000059604645,0.5,0.6000000238418579,0,22.97413583163,113.39540691486,13.9667,0.0,0.0,0.0,0.0,0.0,0.0,0,0.0,0.0,0.0,0.0,0.0,0.0
1715758913644,1715758913640,1715758913643,22.97413742856,113.39540597741,13.9644,0.038600001484155655,0.03610000014305115,0.04149999842047691,17.684200286865234,-9.623700141906738,-0.2409999966621399,0.00860000029206276,0.008100000210106373,0.006399999838322401,-2.273529291152954,331.034912109375,1.683525562286377,0.00989999994635582,0.07530000060796738,0.010099999606609344,26,,,0.0,4,0.0,0.0,0.0,0.0,0.10000000149011612,0.20000000298023224,0.30000001192092896,0.4000000059604645,0.5,0.6000000238418579,0,22.97413742856,113.39540597741,13.9644,0.0,0.0,0.0,0.0,0.0,0.0,0,0.0,0.0,0.0,0.0,0.0,0.0
1715758913656,1715758913650,1715758913656,22.97413902555,113.39540503634,13.9618,0.038600001484155655,0.03610000014305115,0.04149999842047691,17.696500778198242,-9.644200325012207,-0.2565000057220459,0.00860000029206276,0.008100000210106373,0.006399999838322401,-2.303802490234375,331.0181884765625,1.698071002960205,0.00989999994635582,0.07530000060796738,0.010099999606609344,26,,,0.0,4,0.0,0.0,0.0,0.0,0.10000000149011612,0.20000000298023224,0.30000001192092896,0.4000000059604645,0.5,0.6000000238418579,0,22.97413902555,113.39540503634,13.9618,0.0,0.0,0.0,0.0,0.0,0.0,0,0.0,0.0,0.0,0.0,0.0,0.0
1715758913663,1715758913660,1715758913663,22.9741406221,113.39540409598,13.9592,0.038600001484155655,0.03610000014305115,0.04149999842047691,17.694599151611328,-9.645400047302246,-0.2630999982357025,0.00860000029206276,0.008100000210106373,0.006399999838322401,-2.2800824642181396,330.99755859375,1.7062335014343262,0.00989999994635582,0.07530000060796738,0.010099999606609344,26,,,0.0,4,0.0,0.0,0.0,0.0,0.10000000149011612,0.20000000298023224,0.30000001192092896,0.4000000059604645,0.5,0.6000000238418579,0,22.9741406221,113.39540409598,13.9592,0.0,0.0,0.0,0.0,0.0,0.0,0,0.0,0.0,0.0,0.0,0.0,0.0
1715758913674,1715758913670,1715758913673,22.97414221751,113.39540315293,13.9562,0.038600001484155655,0.03610000014305115,0.04149999842047691,17.680099487304688,-9.6697998046875,-0.296099990606308,0.00860000029206276,0.008100000210106373,0.006399999838322401,-2.322495460510254,330.9759521484375,1.6934046745300293,0.00989999994635582,0.07530000060796738,0.010099999606609344,26,,,0.0,4,0.0,0.0,0.0,0.0,0.10000000149011612,0.20000000298023224,0.30000001192092896,0.4000000059604645,0.5,0.6000000238418579,0,22.97414221751,113.39540315293,13.9562,0.0,0.0,0.0,0.0,0.0,0.0,0,0.0,0.0,0.0,0.0,0.0,0.0
1715758913684,1715758913680,1715758913683,22.97414381046,113.39540220635,13.9539,0.038600001484155655,0.03610000014305115,0.04149999842047691,17.649200439453125,-9.710100173950195,-0.24580000340938568,0.00860000029206276,0.008100000210106373,0.006399999838322401,-2.321876049041748,330.9654846191406,1.7122758626937866,0.00989999994635582,0.07530000060796738,0.010099999606609344,26,,,0.0,4,0.0,0.0,0.0,0.0,0.10000000149011612,0.20000000298023224,0.30000001192092896,0.4000000059604645,0.5,0.6000000238418579,0,22.97414381046,113.39540220635,13.9539,0.0,0.0,0.0,0.0,0.0,0.0,0,0.0,0.0,0.0,0.0,0.0,0.0
1715758913693,1715758913690,1715758913693,22.97414540593,113.39540126247,13.9511,0.038600001484155655,0.03610000014305115,0.04149999842047691,17.666200637817383,-9.694100379943848,-0.2669999897480011,0.00860000029206276,0.008100000210106373,0.006399999838322401,-2.2990407943725586,330.9526672363281,1.729102611541748,0.00989999994635582,0.07530000060796738,0.010099999606609344,26,,,0.0,4,0.0,0.0,0.0,0.0,0.10000000149011612,0.20000000298023224,0.30000001192092896,0.4000000059604645,0.5,0.6000000238418579,0,22.97414540593,113.39540126247,13.9511,0.0,0.0,0.0,0.0,0.0,0.0,0,0.0,0.0,0.0,0.0,0.0,0.0
1715758913706,1715758913700,1715758913705,22.97414700298,113.3954003174,13.9482,0.038600001484155655,0.03610000014305115,0.04149999842047691,17.692100524902344,-9.69379997253418,-0.29179999232292175,0.00860000029206276,0.008100000210106373,0.006399999838322401,-2.3175368309020996,330.93426513671875,1.7290935516357422,0.00989999994635582,0.07530000060796738,0.010099999606609344,26,,,0.0,4,0.0,0.0,0.0,0.0,0.10000000149011612,0.20000000298023224,0.30000001192092896,0.4000000059604645,0.5,0.6000000238418579,0,22.97414700298,113.3954003174,13.9482,0.0,0.0,0.0,0.0,0.0,0.0,0,0.0,0.0,0.0,0.0,0.0,0.0
1715758913713,1715758913710,1715758913713,22.97414859898,113.39539937116,13.9454,0.038600001484155655,0.03610000014305115,0.04149999842047691,17.689899444580078,-9.703200340270996,-0.2793999910354614,0.00860000029206276,0.008100000210106373,0.006399999838322401,-2.3624134063720703,330.9173889160156,1.7208822965621948,0.00989999994635582,0.07530000060796738,0.010099999606609344,26,,,0.0,4,0.0,0.0,0.0,0.0,0.10000000149011612,0.20000000298023224,0.30000001192092896,0.4000000059604645,0.5,0.6000000238418579,0,22.97414859898,113.39539937116,13.9454,0.0,0.0,0.0,0.0,0.0,0.0,0,0.0,0.0,0.0,0.0,0.0,0.0
1715758913724,1715758913720,1715758913723,22.97415019286,113.39539842242,13.9428,0.038600001484155655,0.03610000014305115,0.04149999842047691,17.66469955444336,-9.72920036315918,-0.2619999945163727,0.00860000029206276,0.008100000210106373,0.006399999838322401,-2.350128173828125,330.8990173339844,1.7210195064544678,0.00989999994635582,0.07530000060796738,0.010099999606609344,26,,,0.0,4,0.0,0.0,0.0,0.0,0.10000000149011612,0.20000000298023224,0.30000001192092896,0.4000000059604645,0.5,0.6000000238418579,0,22.97415019286,113.39539842242,13.9428,0.0,0.0,0.0,0.0,0.0,0.0,0,0.0,0.0,0.0,0.0,0.0,0.0
1715758913735,1715758913730,1715758913734,22.97415178902,113.39539747542,13.94,0.038600001484155655,0.03610000014305115,0.04149999842047691,17.678600311279297,-9.719499588012695,-0.2736999988555908,0.00860000029206276,0.008100000210106373,0.006399999838322401,-2.3552210330963135,330.8854064941406,1.7347207069396973,0.00989999994635582,0.07530000060796738,0.010099999606609344,26,,,0.0,4,0.0,0.0,0.0,0.0,0.10000000149011612,0.20000000298023224,0.30000001192092896,0.4000000059604645,0.5,0.6000000238418579,0,22.97415178902,113.39539747542,13.94,0.0,0.0,0.0,0.0,0.0,0.0,0,0.0,0.0,0.0,0.0,0.0,0.0
1715758913744,1715758913740,1715758913743,22.97415338523,113.39539652874,13.9369,0.038600001484155655,0.03610000014305115,0.04149999842047691,17.685800552368164,-9.709500312805176,-0.30979999899864197,0.00860000029206276,0.008100000210106373,0.006399999838322401,-2.397970676422119,330.8692626953125,1.7357169389724731,0.00989999994635582,0.07530000060796738,0.010099999606609344,26,,,0.0,4,0.0,0.0,0.0,0.0,0.10000000149011612,0.20000000298023224,0.30000001192092896,0.4000000059604645,0.5,0.6000000238418579,0,22.97415338523,113.39539652874,13.9369,0.0,0.0,0.0,0.0,0.0,0.0,0,0.0,0.0,0.0,0.0,0.0,0.0
1715758913754,1715758913750,1715758913754,22.97415498045,113.39539557858,13.9343,0.038600001484155655,0.03610000014305115,0.04149999842047691,17.677600860595703,-9.73840045928955,-0.274399995803833,0.00860000029206276,0.008100000210106373,0.006399999838322401,-2.384066104888916,330.8551940917969,1.7351254224777222,0.00989999994635582,0.07530000060796738,0.010099999606609344,26,,,0.0,4,0.0,0.0,0.0,0.0,0.10000000149011612,0.20000000298023224,0.30000001192092896,0.4000000059604645,0.5,0.6000000238418579,0,22.97415498045,113.39539557858,13.9343,0.0,0.0,0.0,0.0,0.0,0.0,0,0.0,0.0,0.0,0.0,0.0,0.0
1715758913763,1715758913760,1715758913763,22.97415657544,113.39539462774,13.9314,0.038600001484155655,0.03610000014305115,0.04149999842047691,17.671499252319336,-9.754899978637695,-0.2831999957561493,0.00860000029206276,0.008100000210106373,0.006399999838322401,-2.4070959091186523,330.83953857421875,1.7415708303451538,0.00989999994635582,0.07530000060796738,0.010099999606609344,26,,,0.0,4,0.0,0.0,0.0,0.0,0.10000000149011612,0.20000000298023224,0.30000001192092896,0.4000000059604645,0.5,0.6000000238418579,0,22.97415657544,113.39539462774,13.9314,0.0,0.0,0.0,0.0,0.0,0.0,0,0.0,0.0,0.0,0.0,0.0,0.0
1715758913774,1715758913770,1715758913773,22.97415816972,113.39539367831,13.9284,0.038600001484155655,0.03610000014305115,0.04149999842047691,17.662599563598633,-9.74370002746582,-0.301800012588501,0.00860000029206276,0.008100000210106373,0.006399999838322401,-2.435967206954956,330.82421875,1.7438850402832031,0.00989999994635582,0.07530000060796738,0.010099999606609344,26,,,0.0,4,0.0,0.0,0.0,0.0,0.10000000149011612,0.20000000298023224,0.30000001192092896,0.4000000059604645,0.5,0.6000000238418579,0,22.97415816972,113.39539367831,13.9284,0.0,0.0,0.0,0.0,0.0,0.0,0,0.0,0.0,0.0,0.0,0.0,0.0
1715758913784,1715758913780,1715758913783,22.97415976303,113.39539272726,13.9252,0.038600001484155655,0.03610000014305115,0.04149999842047691,17.650699615478516,-9.752099990844727,-0.3147999942302704,0.00860000029206276,0.008100000210106373,0.006399999838322401,-2.4234118461608887,330.8087463378906,1.7370012998580933,0.00989999994635582,0.07530000060796738,0.010099999606609344,26,,,0.0,4,0.0,0.0,0.0,0.0,0.10000000149011612,0.20000000298023224,0.30000001192092896,0.4000000059604645,0.5,0.6000000238418579,0,22.97415976303,113.39539272726,13.9252,0.0,0.0,0.0,0.0,0.0,0.0,0,0.0,0.0,0.0,0.0,0.0,0.0
1715758913793,1715758913790,1715758913792,22.97416135701,113.39539177554,13.9224,0.038600001484155655,0.03610000014305115,0.04149999842047691,17.65519905090332,-9.760499954223633,-0.28760001063346863,0.00860000029206276,0.008100000210106373,0.006399999838322401,-2.4277572631835938,330.7945556640625,1.7344422340393066,0.00989999994635582,0.07530000060796738,0.010099999606609344,26,,,0.0,4,0.0,0.0,0.0,0.0,0.10000000149011612,0.20000000298023224,0.30000001192092896,0.4000000059604645,0.5,0.6000000238418579,0,22.97416135701,113.39539177554,13.9224,0.0,0.0,0.0,0.0,0.0,0.0,0,0.0,0.0,0.0,0.0,0.0,0.0
1715758913817,1715758913800,1715758913817,22.97416294917,113.3953908232,13.9196,0.038600001484155655,0.03610000014305115,0.04149999842047691,17.640199661254883,-9.767800331115723,-0.28439998626708984,0.00860000029206276,0.008100000210106373,0.006399999838322401,-2.4559195041656494,330.7774353027344,1.7287087440490723,0.00989999994635582,0.07530000060796738,0.010099999606609344,26,,,0.0,4,0.0,0.0,0.0,0.0,0.10000000149011612,0.20000000298023224,0.30000001192092896,0.4000000059604645,0.5,0.6000000238418579,0,22.97416294917,113.3953908232,13.9196,0.0,0.0,0.0,0.0,0.0,0.0,0,0.0,0.0,0.0,0.0,0.0,0.0
1715758913819,1715758913810,1715758913819,22.97416454036,113.39538986989,13.9163,0.038600001484155655,0.03610000014305115,0.04149999842047691,17.625999450683594,-9.777799606323242,-0.3199999928474426,0.00860000029206276,0.008100000210106373,0.006399999838322401,-2.429394483566284,330.7661437988281,1.7327121496200562,0.00989999994635582,0.07530000060796738,0.010099999606609344,26,,,0.0,4,0.0,0.0,0.0,0.0,0.10000000149011612,0.20000000298023224,0.30000001192092896,0.4000000059604645,0.5,0.6000000238418579,0,22.97416454036,113.39538986989,13.9163,0.0,0.0,0.0,0.0,0.0,0.0,0,0.0,0.0,0.0,0.0,0.0,0.0
1715758913824,1715758913820,1715758913823,22.97416613171,113.39538891638,13.9134,0.038600001484155655,0.03610000014305115,0.04149999842047691,17.625200271606445,-9.781200408935547,-0.2978000044822693,0.00860000029206276,0.008100000210106373,0.006399999838322401,-2.431570291519165,330.7502136230469,1.7199974060058594,0.00989999994635582,0.07530000060796738,0.010099999606609344,26,,,0.0,4,0.0,0.0,0.0,0.0,0.10000000149011612,0.20000000298023224,0.30000001192092896,0.4000000059604645,0.5,0.6000000238418579,0,22.97416613171,113.39538891638,13.9134,0.0,0.0,0.0,0.0,0.0,0.0,0,0.0,0.0,0.0,0.0,0.0,0.0
1715758913834,1715758913830,1715758913832,22.97416772226,113.3953879624,13.9105,0.038600001484155655,0.03610000014305115,0.04149999842047691,17.619400024414062,-9.784600257873535,-0.28700000047683716,0.00860000029206276,0.008100000210106373,0.006399999838322401,-2.448330879211426,330.73492431640625,1.714605450630188,0.00989999994635582,0.07530000060796738,0.010099999606609344,26,,,0.0,4,0.0,0.0,0.0,0.0,0.10000000149011612,0.20000000298023224,0.30000001192092896,0.4000000059604645,0.5,0.6000000238418579,0,22.97416772226,113.3953879624,13.9105,0.0,0.0,0.0,0.0,0.0,0.0,0,0.0,0.0,0.0,0.0,0.0,0.0
1715758913844,1715758913840,1715758913843,22.97416931172,113.39538700783,13.9076,0.038600001484155655,0.03610000014305115,0.04149999842047691,17.60810089111328,-9.789799690246582,-0.2863999903202057,0.00860000029206276,0.008100000210106373,0.006399999838322401,-2.40590763092041,330.72125244140625,1.6999351978302002,0.00989999994635582,0.07530000060796738,0.010099999606609344,26,,,0.0,4,0.0,0.0,0.0,0.0,0.10000000149011612,0.20000000298023224,0.30000001192092896,0.4000000059604645,0.5,0.6000000238418579,0,22.97416931172,113.39538700783,13.9076,0.0,0.0,0.0,0.0,0.0,0.0,0,0.0,0.0,0.0,0.0,0.0,0.0
1715758913853,1715758913850,1715758913853,22.97417090177,113.39538605258,13.9044,0.038600001484155655,0.03610000014305115,0.04149999842047691,17.611799240112305,-9.796799659729004,-0.31200000643730164,0.00860000029206276,0.008100000210106373,0.006399999838322401,-2.40956449508667,330.705810546875,1.6969488859176636,0.00989999994635582,0.07530000060796738,0.010099999606609344,26,,,0.0,4,0.0,0.0,0.0,0.0,0.10000000149011612,0.20000000298023224,0.30000001192092896,0.4000000059604645,0.5,0.6000000238418579,0,22.97417090177,113.39538605258,13.9044,0.0,0.0,0.0,0.0,0.0,0.0,0,0.0,0.0,0.0,0.0,0.0,0.0
1715758913864,1715758913860,1715758913863,22.97417249057,113.39538509832,13.9015,0.038600001484155655,0.03610000014305115,0.04149999842047691,17.6023006439209,-9.788399696350098,-0.2957000136375427,0.00860000029206276,0.008100000210106373,0.006399999838322401,-2.4153189659118652,330.6921081542969,1.692345380783081,0.00989999994635582,0.07530000060796738,0.010099999606609344,26,,,0.0,4,0.0,0.0,0.0,0.0,0.10000000149011612,0.20000000298023224,0.30000001192092896,0.4000000059604645,0.5,0.6000000238418579,0,22.97417249057,113.39538509832,13.9015,0.0,0.0,0.0,0.0,0.0,0.0,0,0.0,0.0,0.0,0.0,0.0,0.0
1715758913873,1715758913870,1715758913873,22.97417407902,113.39538414366,13.8987,0.038600001484155655,0.03610000014305115,0.04149999842047691,17.596399307250977,-9.788000106811523,-0.2782999873161316,0.00860000029206276,0.008100000210106373,0.006399999838322401,-2.3647327423095703,330.67840576171875,1.688737392425537,0.00989999994635582,0.07530000060796738,0.010099999606609344,26,,,0.0,4,0.0,0.0,0.0,0.0,0.10000000149011612,0.20000000298023224,0.30000001192092896,0.4000000059604645,0.5,0.6000000238418579,0,22.97417407902,113.39538414366,13.8987,0.0,0.0,0.0,0.0,0.0,0.0,0,0.0,0.0,0.0,0.0,0.0,0.0
1715758913883,1715758913880,1715758913883,22.97417566762,113.39538318824,13.8956,0.038600001484155655,0.03610000014305115,0.04149999842047691,17.59749984741211,-9.795299530029297,-0.30320000648498535,0.00860000029206276,0.008100000210106373,0.006399999838322401,-2.3503715991973877,330.6635437011719,1.6876829862594604,0.00989999994635582,0.07530000060796738,0.010099999606609344,26,,,0.0,4,0.0,0.0,0.0,0.0,0.10000000149011612,0.20000000298023224,0.30000001192092896,0.4000000059604645,0.5,0.6000000238418579,0,22.97417566762,113.39538318824,13.8956,0.0,0.0,0.0,0.0,0.0,0.0,0,0.0,0.0,0.0,0.0,0.0,0.0
